[
  {
    "name": "Mumbai",
    "latitude": 19.0760,
    "longitude": 72.8777,
    "timezone": "Asia/Kolkata"
  },
  {
    "name": "Delhi",
    "latitude": 28.6139,
    "longitude": 77.2090,
    "timezone": "Asia/Kolkata"
  },
  {
    "name": "Bangalore",
    "latitude": 12.9716,
    "longitude": 77.5946,
    "timezone": "Asia/Kolkata"
  },
  {
    "name": "Chennai",
    "latitude": 13.0827,
    "longitude": 80.2707,
    "timezone": "Asia/Kolkata"
  },
  {
    "name": "Kolkata",
    "latitude": 22.5726,
    "longitude": 88.3639,
    "timezone": "Asia/Kolkata"
  },
  {
    "name": "Hyderabad",
    "latitude": 17.3850,
    "longitude": 78.4867,
    "timezone": "Asia/Kolkata"
  },
  {
    "name": "Pune",
    "latitude": 18.5204,
    "longitude": 73.8567,
    "timezone": "Asia/Kolkata"
  },
  {
    "name": "Ahmedabad",
    "latitude": 23.0225,
    "longitude": 72.5714,
    "timezone": "Asia/Kolkata"
  },
  {
    "name": "New York",
    "latitude": 40.7128,
    "longitude": -74.0060,
    "timezone": "America/New_York"
  },
  {
    "name": "London",
    "latitude": 51.5074,
    "longitude": -0.1278,
    "timezone": "Europe/London"
  },
  {
    "name": "Tokyo",
    "latitude": 35.6762,
    "longitude": 139.6503,
    "timezone": "Asia/Tokyo"
  },
  {
    "name": "Sydney",
    "latitude": -33.8688,
    "longitude": 151.2093,
    "timezone": "Australia/Sydney"
  },
  {
    "name": "Dubai",
    "latitude": 25.2048,
    "longitude": 55.2708,
    "timezone": "Asia/Dubai"
  },
  {
    "name": "Singapore",
    "latitude": 1.3521,
    "longitude": 103.8198,
    "timezone": "Asia/Singapore"
  },
  {
    "name": "Paris",
    "latitude": 48.8566,
    "longitude": 2.3522,
    "timezone": "Europe/Paris"
  }
] 